id,name.local,name.en,name.slug,code.id,geo.lat,geo.lon
CI260402,Gnanmangui,Gnanmangui,gnanmangui-ci260402,CI260402,5.765,-6.888
CI260403,Grand-Zatry,Grand-Zatry,grand-zatry-ci260403,CI260403,6.142,-6.565
CI260404,Liliyo,Liliyo,liliyo-ci260404,CI260404,5.945,-6.43
CI260405,Okrouyo,Okrouyo,okrouyo-ci260405,CI260405,5.707,-6.396
CI260401,Soubre,Soubre,soubre-ci260401,CI260401,5.87,-6.618
