id,name.local,name.en,name.slug,code.id,geo.lat,geo.lon
CI150201,Ahouanou,Ahouanou,ahouanou-ci150201,CI150201,5.459,-4.816
CI150202,Bacanda,Bacanda,bacanda-ci150202,CI150202,5.695,-4.879
CI150203,Ebonou,Ebonou,ebonou-ci150203,CI150203,5.181,-5.412
CI150204,Grand Lahou,Grand Lahou,grand-lahou-ci150204,CI150204,5.369,-4.967
CI150205,Toukouzou,Toukouzou,toukouzou-ci150205,CI150205,5.158,-4.804
