id,name.local,name.en,name.slug,code.id,geo.lat,geo.lon
CI170302,Arikokaha,Arikokaha,arikokaha-ci170302,CI170302,8.754,-5.09
CI170303,Badikaha,Badikaha,badikaha-ci170303,CI170303,9.286,-5.193
CI170301,Niakaramandougou,Niakaramandougou,niakaramandougou-ci170301,CI170301,8.691,-5.333
CI170304,Niédiékaha,Niédiékaha,nidikaha-ci170304,CI170304,8.917,-5.124
CI170305,Tafiré,Tafiré,tafir-ci170305,CI170305,9.081,-5.19
CI170306,Tortiya,Tortiya,tortiya-ci170306,CI170306,8.706,-5.607
