id,name.local,name.en,name.slug,code.id,geo.lat,geo.lon
CI240101,Adzopé,Adzopé,adzop-ci240101,CI240101,6.217,-3.803
CI240102,Agou,Agou,agou-ci240102,CI240102,6,-3.965
CI240103,Annepé,Annepé,annep-ci240103,CI240103,5.924,-3.772
CI240104,Assikoi,Assikoi,assikoi-ci240104,CI240104,5.969,-3.826
CI240105,Bécédi-Brignan,Bécédi-Brignan,bcdi-brignan-ci240105,CI240105,5.869,-4.021
CI240106,Yakassé-Mé,Yakassé-Mé,yakass-m-ci240106,CI240106,5.831,-3.939
