id,name.local,name.en,name.slug,code.id,geo.lat,geo.lon
CI200201,Agnibilekrou,Agnibilekrou,agnibilekrou-ci200201,CI200201,7.161,-3.227
CI200202,Akoboissué,Akoboissué,akoboissu-ci200202,CI200202,6.919,-3.229
CI200203,Damé,Damé,dam-ci200203,CI200203,7.003,-3.171
CI200204,Duffrebo,Duffrebo,duffrebo-ci200204,CI200204,7.184,-3.515
CI200205,Tanguélan,Tanguélan,tangulan-ci200205,CI200205,7.152,-3.366
